{
  "title": "mistFES",
  "sections": [
    {
      "type": "banner",
      "imageUrl": "mistfes2024.jpg",
      "___imageUrl": "http://mistfes.com/images/mistfes2024.jpg",
      "aspectRatio": "16:9"
    },
    {
      "type": "ticket",
      "url": "https://www.funity.jp/tickets/andcore2/showlist",
      "prices": [
        { "name": "1日券 前売", "price": "¥7,100" },
        { "name": "1日券 当日", "price": "¥8,100" },
        { "name": "2日通し券", "price": "¥13,200" }
      ]
    },
    {
      "type": "message",
      "messages": [
        { "text": "名古屋・栄 / 大須 / 新栄エリアを横断するサーキットフェス。", "color": "#e91e63" },
        { "text": "移動前に各会場の入場導線・再入場可否・物販会場を確認してください。", "color": "#666666" }
      ]
    },
    {
      "type": "map_access",
      "venueName": "mistFES 会場エリア中心",
      "address": "愛知県名古屋市中区 栄・大須・新栄 周辺",
      "lat": 35.1679,
      "lng": 136.9092
    },
    {
      "type": "map_stages",
      "mapTitle": "venue",
      
      "byLiveId": {
        "common": {
          "_MEMO_":"commonは全ライブ共通の設定。ライブごとならliveIDの数値を指定。数値とcommon両方に同じキーがある場合はライブごとの設定が優先される。",
          "center": { "lat": 35.1679, "lng": 136.9092 },
          "zoom": 15,
          "note": "会場エリア",
          "___note": "主要会場の位置関係が把握できるよう、名古屋・栄 / 大須 / 新栄エリアの会場をまとめています。",
          "pins": [
            { "lat": 35.16620339818639, "lng": 136.9082130398069, "label": "名古屋 ReNY", "stageId": 0 },
            { "lat": 35.17098777424267, "lng": 136.90618452495062, "label": "Zephyr ホール", "stageId": 1 },
            { "lat": 35.161538938573294, "lng": 136.90665662446438, "label": "RAD HALL", "stageId": 2 },
            { "lat": 35.16136134059747, "lng": 136.90700161651992, "label": "TOYS", "stageId": 3 },
            { "lat": 35.16439457743024, "lng": 136.9037357398068, "label": "HOLIDAY NEXT", "stageId": 4 },
            { "lat": 35.160193385133525, "lng": 136.9022491048765735, "label": "X-HALL", "stageId": 5 },
            { "lat": 35.160155514607595, "lng": 136.89925622719107, "label": "Dt.BLD 3F", "stageId": 6 },
            { "lat": 35.16011854194368, "lng": 136.9062932821353, "label": "静かの海", "stageId": 7 },
            { "lat": 35.1568668335241, "lng": 136.9064153016747, "label": "Zion", "stageId": 8 },
            { "lat": 35.16724473674373, "lng": 136.898458039806935, "label": "バーサスホール", "stageId": 9 },
            { "lat": 35.16500399686236, "lng": 136.89547025329978, "label": "ライオンシアター", "stageId": 10 },
            { "lat": 35.16495658883546, "lng": 136.8956824128207535, "label": "ライオンカフェ", "stageId": 11 },
            { "lat": 35.16909945771579, "lng": 136.912440773646335, "label": "ライオンリミテッド", "stageId": 12 },
            { "lat": 35.16390629463814, "lng": 136.9125813416562835, "label": "シアターZONE", "stageId": 13 },
            { "lat": 35.15729406064573, "lng": 136.90912962631376, "label": "LIVE HOUSE 51", "stageId": 14 },
            { "lat": 35.16700236610841, "lng": 136.9133967331668235, "label": "DIVA", "stageId": 15 },
            { "lat": 35.166862036807224, "lng": 136.9135362080304835, "label": "DEEP", "stageId": 16 },
            { "lat": 35.170193837041744, "lng": 136.91724242391905, "label": "DAYTRIVE", "stageId": 17 },

            { "lat": 35.16616015692285, "lng": 136.90971128213545, "label": "CHUTOホール", "stageType":"booth" },
            { "lat": 35.16629967393694, "lng": 136.90750927049234, "label": "栄ガスビル", "stageType":"booth" },
            { "lat": 35.16393260735687, "lng": 136.91244186679262, "label": "シアターZONE駐車場", "stageType":"booth" },
            { "lat": 35.17145857480805, "lng": 136.90733676864275, "label": "TKPガーデンシティ栄", "stageType":"booth" },
            { "lat": 35.16912576875426, "lng": 136.91207599323369, "label": "Live HOUSE 51", "stageType":"booth" },
            { "lat": 35.169482338423194, "lng": 136.91829812761833, "label": "Fj theater", "stageType":"booth" },
            { "lat": 35.167164384072414, "lng": 136.89869081097112, "label": "studiofix名古屋", "stageType":"booth" },
            { "lat": 35.168225797851996, "lng": 136.89784299878264, "label": "伏見駅前会議室", "stageType":"booth" },
            { "lat": 35.161449898082694, "lng": 136.90737974296073, "label": "矢場町中駒ビル", "stageType":"booth" },
            { "lat": 35.160144855887815, "lng": 136.90633619747794, "label": "静かの海", "stageType":"booth" }
          ]
        },
        
        "265": {
          "_MEMO_":"commonは全ライブ共通の設定。ライブごとならliveIDの数値を指定。数値とcommon両方に同じキーがある場合はライブごとの設定が優先される。",
          "center": { "lat": 35.1679, "lng": 136.9092 },
          "zoom": 15,
          "note": "会場エリア",
          "___note": "主要会場の位置関係が把握できるよう、名古屋・栄 / 大須 / 新栄エリアの会場をまとめています。",
          "pins": [
            { "lat": 35.16620339818639, "lng": 136.9082130398069, "label": "★名古屋 ReNY", "stageId": 0 },
            { "lat": 35.17098777424267, "lng": 136.90618452495062, "label": "Zephyr ホール", "stageId": 1 },
            { "lat": 35.161538938573294, "lng": 136.90665662446438, "label": "RAD HALL", "stageId": 2 },
            { "lat": 35.16136134059747, "lng": 136.90700161651992, "label": "TOYS", "stageId": 3 },
            { "lat": 35.16439457743024, "lng": 136.9037357398068, "label": "HOLIDAY NEXT", "stageId": 4 },
            { "lat": 35.160193385133525, "lng": 136.9022491048765735, "label": "X-HALL", "stageId": 5 },
            { "lat": 35.160155514607595, "lng": 136.89925622719107, "label": "Dt.BLD 3F", "stageId": 6 },
            { "lat": 35.16011854194368, "lng": 136.9062932821353, "label": "静かの海", "stageId": 7 },
            { "lat": 35.1568668335241, "lng": 136.9064153016747, "label": "Zion", "stageId": 8 },
            { "lat": 35.16724473674373, "lng": 136.898458039806935, "label": "バーサスホール", "stageId": 9 },
            { "lat": 35.16500399686236, "lng": 136.89547025329978, "label": "ライオンシアター", "stageId": 10 },
            { "lat": 35.16495658883546, "lng": 136.8956824128207535, "label": "ライオンカフェ", "stageId": 11 },
            { "lat": 35.16909945771579, "lng": 136.912440773646335, "label": "ライオンリミテッド", "stageId": 12 },
            { "lat": 35.16390629463814, "lng": 136.9125813416562835, "label": "シアターZONE", "stageId": 13 },
            { "lat": 35.15729406064573, "lng": 136.90912962631376, "label": "LIVE HOUSE 51", "stageId": 14 },
            { "lat": 35.16700236610841, "lng": 136.9133967331668235, "label": "DIVA", "stageId": 15 },
            { "lat": 35.166862036807224, "lng": 136.9135362080304835, "label": "DEEP", "stageId": 16 },
            { "lat": 35.170193837041744, "lng": 136.91724242391905, "label": "DAYTRIVE", "stageId": 17 },

            { "lat": 35.16616015692285, "lng": 136.90971128213545, "label": "CHUTOホール", "stageType":"booth" },
            { "lat": 35.16629967393694, "lng": 136.90750927049234, "label": "栄ガスビル", "stageType":"booth" },
            { "lat": 35.16393260735687, "lng": 136.91244186679262, "label": "シアターZONE駐車場", "stageType":"booth" },
            { "lat": 35.17145857480805, "lng": 136.90733676864275, "label": "TKPガーデンシティ栄", "stageType":"booth" },
            { "lat": 35.16912576875426, "lng": 136.91207599323369, "label": "Live HOUSE 51", "stageType":"booth" },
            { "lat": 35.169482338423194, "lng": 136.91829812761833, "label": "Fj theater", "stageType":"booth" },
            { "lat": 35.167164384072414, "lng": 136.89869081097112, "label": "studiofix名古屋", "stageType":"booth" },
            { "lat": 35.168225797851996, "lng": 136.89784299878264, "label": "伏見駅前会議室", "stageType":"booth" },
            { "lat": 35.161449898082694, "lng": 136.90737974296073, "label": "矢場町中駒ビル", "stageType":"booth" },
            { "lat": 35.160144855887815, "lng": 136.90633619747794, "label": "静かの海", "stageType":"booth" }
          ]
        }
      }
    },
    {
      "type": "message",
      "messages": [
        { "text": "サンシャイン栄〜エディオン広場〜栄会場と、大須・新栄会場は移動時間に余裕を持つのがおすすめです。", "color": "#1565c0" },
        { "text": "※地図上の位置は会場位置関係の把握用です。最終的な入場口や集合場所は主催案内を確認してください。", "color": "#777777" }
      ]
    },
    {
      "type": "links",
      "items": [
        { "media": "website", "label": "公式サイト", "url": "http://mistfes.com/2024/" },
        { "media": "x", "label": "公式Xアカウント", "url": "https://x.com/HMN_inc" }
      ]
    }
  ]
}
