{
  "title": "mistFES 2026",
  "sections": [
    {
      "type": "banner",
      "imageUrl": "mistfes2026_small.jpg",
      "aspectRatio": "16:9"
    },
    {
      "type": "ticket",
      "url": "https://user.my-th.jp/tickets/event/mistfes2026-0613",
      "prices": [
        { "name": "2日通し券※前売のみ", "price": "14,400円 (2ドリンク代 1,400円含む)" },
        { "name": "1日券 前売", "price": " 7,700円 (1ドリンク代700円含む)" },
        { "name": "1日券 当日", "price": " 8,700円 (1ドリンク代700円含む)" },
        { "name": "1日目" }
      ]
    },
    {
      "type": "ticket",
      "url": "https://user.my-th.jp/tickets/event/mistfes2026-0614",
      "prices": [
        { "name": "2日目" }
      ]
    },
    {
      "type": "ticket",
      "urls": [
        { "title": "1日目", "url": "https://user.my-th.jp/tickets/event/mistfes2026-0613" },
        { "title": "2日目", "url": "https://user.my-th.jp/tickets/event/mistfes2026-0614" }
      ],
      "prices": [
        { "name": "2日通し券※前売のみ", "price": "14,400円 (2ドリンク代 1,400円含む)" },
        { "name": "1日券 前売", "price": " 7,700円 (1ドリンク代700円含む)" },
        { "name": "1日券 当日", "price": " 8,700円 (1ドリンク代700円含む)" }
      ]
    },
    {
      "type": "message",
      "messages": [
        { "text": "名古屋・栄 / 大須 / 新栄エリアを横断するサーキットフェス。", "color": "#e91e63" },
        { "text": "移動前に各会場の入場導線・再入場可否・物販会場をご確認ください。", "color": "#666666" }
      ]
    },
    {
      "type": "map_access",
      "venueName": "mistFES 会場エリア中心",
      "address": "愛知県名古屋市中区 栄・大須・新栄 周辺",
      "lat": 35.1679,
      "lng": 136.9092
    },
    {
      "type": "map_stages",
      "mapTitle": "venue",
      
      "byLiveId": {
        "common": {
          "_MEMO_":"commonは全ライブ共通の設定。ライブごとならliveIDの数値を指定。数値とcommon両方に同じキーがある場合はライブごとの設定が優先される。",
          "center": { "lat": 35.1679, "lng": 136.9092 },
          "zoom": 15,
          "note": "会場エリア",
          "pins": [
            { "lat": 35.1660017, "lng": 136.9075894, "label": "NAGOYA ReNY limited", "stageId": 999 },
            { "lat": 35.1708525, "lng": 136.9035044, "label": "Zephyr Hall", "stageId": 999 },
            { "lat": 35.161346, "lng": 136.9041407, "label": "RAD HALL", "stageId": 999 },
            { "lat": 35.1608064, "lng": 136.904001, "label": "大須TOYS", "stageId": 999 },
            { "lat": 35.1642455, "lng": 136.9011769, "label": "HOLIDAY NEXT NAGOYA", "stageId": 999 },
            { "lat": 35.1600443, "lng": 136.8993684, "label": "X-HALL -ZEN-", "stageId": 999 },
            { "lat": 35.1600018, "lng": 136.8967494, "label": "Dt.BLD 3F", "stageId": 999 },
            { "lat": 35.159671, "lng": 136.898681, "label": "アンリミッツ大須", "stageId": 999 },
            { "lat": 35.1670255, "lng": 136.8958992, "label": "VERSUS東海ホール", "stageId": 999 },
            { "lat": 35.1647409, "lng": 136.8929436, "label": "伏見ライオンシアター", "stageId": 999 },
            { "lat": 35.1647812, "lng": 136.8930592, "label": "伏見ライオンカフェ", "stageId": 999 },
            { "lat": 35.1689767, "lng": 136.909088, "label": "Lion Limited（ライオンリミテッド）", "stageId": 999 },
            { "lat": 35.1637923, "lng": 136.9099474, "label": "シアターZONE", "stageId": 999 },
            { "lat": 35.1689766, "lng": 136.9090773, "label": "R.A.D", "stageId": 999 },
            { "lat": 35.1667653, "lng": 136.9107893, "label": "Sound Space DIVA", "stageId": 999 },
            { "lat": 35.1667401, "lng": 136.910801, "label": "DEEP@名古屋栄 \"DIVAの4階\"", "stageId": 999 },
            { "lat": 35.1673372, "lng": 136.9118273, "label": "RAD NINE", "stageId": 999 },
            { "lat": 35.1697399, "lng": 136.9136031, "label": "RAD SEVEN", "stageId": 999 },
            { "lat": 35.170036, "lng": 136.9141686, "label": "新栄DAYTRIVE&TRIM", "stageId": 999 },
            { "lat": 35.169662, "lng": 136.9183507, "label": "新栄シャングリラ", "stageId": 999 },

            { "lat": 35.1659804, "lng": 136.9071793, "label": "CHUTOホール", "stageType":"booth" },
            { "lat": 35.166155, "lng": 136.90487, "label": "栄ガスビル", "stageType":"booth" },
            { "lat": 35.1637923, "lng": 136.9099474, "label": "シアターZONE駐車場", "stageType":"booth" },
            { "lat": 35.1712876, "lng": 136.9047726, "label": "TKPガーデンシティ栄", "stageType":"booth" },
            { "lat": 35.1659639, "lng": 136.9165056, "label": "Live HOUSE 51", "stageType":"booth" },
            { "lat": 35.1693289, "lng": 136.9150795, "label": "Fj theater", "stageType":"booth" },
            { "lat": 35.1669934, "lng": 136.8961481, "label": "studiofix名古屋", "stageType":"booth" },
            { "lat": 35.1679408, "lng": 136.8946351, "label": "伏見駅前会議室", "stageType":"booth" },
            { "lat": 35.1613403, "lng": 136.9041182, "label": "矢場町中駒ビル", "stageType":"booth" },
            { "lat": 35.15993, "lng": 136.9037613, "label": "静かの海", "stageType":"booth" },

            { "lat": 35.1654084, "lng": 136.9057178, "label": "リファレンス会議室", "stageType":"booth" },
            { "lat": 35.1629481, "lng": 136.9049632, "label": "アイドル共和国", "stageType":"booth" },
            { "lat": 35.161281, "lng": 136.8990472, "label": "西大須AURA", "stageType":"booth" },
            { "lat": 35.1681387, "lng": 136.9098378, "label": "Party'z", "stageType":"booth" },
            { "lat": 35.1681943, "lng": 136.902113, "label": "TRIM", "stageType":"booth" }

          ]
        }
      }
    },
    {
      "type": "message",
      "messages": [
        { "text": "※地図上の位置は会場位置関係の把握用です。最終的な入場口や集合場所は主催案内を確認してください。", "color": "#777777" }
      ]
    },
    {
      "type": "links",
      "items": [
        { "media": "website", "label": "公式サイト", "url": "http://mistfes.com/" },
        { "media": "x", "label": "公式Xアカウント", "url": "https://x.com/HMN_inc" }
      ]
    }
  ]
}
