{
  "title": "mistFES 2026",
  "退避": [
    {
      "type": "ticket",
      "url": "https://user.my-th.jp/tickets/event/mistfes2026-0613",
      "prices": [
        { "name": "2日通し券※前売のみ", "price": "14,400円 (2ドリンク代 1,400円含む)" },
        { "name": "1日券 前売", "price": " 7,700円 (1ドリンク代700円含む)" },
        { "name": "1日券 当日", "price": " 8,700円 (1ドリンク代700円含む)" },
        { "name": "1日目" }
      ]
    },
    {
      "type": "ticket",
      "url": "https://user.my-th.jp/tickets/event/mistfes2026-0614",
      "prices": [
        { "name": "2日目" }
      ]
    }
  ],
  "sections": [
    {
      "type": "banner",
      "imageUrl": "mistfes2026_.png",
      "imageUrl_": "mistfes2026_small.jpg",
      "aspectRatio": "16:9"
    },
    {
      "type": "message",
      "messages": [
        { "text": "ℹ️当日のリストバンド交換場所", "color": "#C92712" },
        { "text": "焼肉HIDEYOSHI 8:00-", "color": "#333333" },
        { "text": "ReNY 9:00- （RAD HALLからReNYへ変更）", "color": "#333333" },
        { "text": "Dt.BLD 8:00-", "color": "#333333" }
      ]
    },
    {
      "type": "message______",
      "messages": [
        { "text": "※画像使用は公式許諾済です。", "color": "#AAAAAA" }
      ]
    },
    {
      "type": "ticket_link",
      "memo":"1.16.3用",
      "urls": [
        { "title": "チケット購入サイト 1日目", "url": "https://user.my-th.jp/tickets/event/mistfes2026-0613" },
        { "title": "チケット購入サイト 2日目", "url": "https://user.my-th.jp/tickets/event/mistfes2026-0614" }
      ],
      "prices": [
        { "name": "2日通し券※前売のみ", "price": "14,400円 (2ドリンク代 1,400円含む)" },
        { "name": "1日券 前売", "price": " 7,700円 (1ドリンク代700円含む)" },
        { "name": "1日券 当日", "price": " 8,700円 (1ドリンク代700円含む)" }
      ]
    },
    {
      "type": "ticket",
      "memo":"1.16.0用A",
      "url": "https://user.my-th.jp/tickets/event/mistfes2026-0613",
      "prices": [
        { "name": "2日通し券※前売のみ", "price": "14,400円 (2ドリンク代 1,400円含む)" },
        { "name": "1日券 前売", "price": " 7,700円 (1ドリンク代700円含む)" },
        { "name": "1日券 当日", "price": " 8,700円 (1ドリンク代700円含む)" },
        { "name": "1日目" }
      ]
    },
    {
      "type": "ticket",
      "memo":"1.16.0用B",
      "url": "https://user.my-th.jp/tickets/event/mistfes2026-0614",
      "prices": [
        { "name": "2日目" }
      ]
    },
    {
      "type": "message",
      "messages": [
        { "text": "移動前に各会場の入場導線・再入場可否・物販会場をご確認ください。", "color": "#666666" }
      ],
      "bak":{ "text_": "名古屋・栄 / 大須 / 新栄エリアを横断するサーキットフェス。", "color": "#e91e63" }
    },
    {
      "type": "map_access",
      "venueName": "mistFES 会場エリア中心",
      "address": "愛知県名古屋市中区 栄・大須・新栄 周辺",
      "lat": 35.1679,
      "lng": 136.9092
    },
    {
      "type": "map_stages",
      "mapTitle": "venue",
      
      "byLiveId": {
        "common": {
          "_MEMO_":"commonは全ライブ共通の設定。ライブごとならliveIDの数値を指定。数値とcommon両方に同じキーがある場合はライブごとの設定が優先される。",
          "center": { "lat": 35.1679, "lng": 136.9092 },
          "zoom": 15,
          "note": "会場エリア",
          "pins": [
            { "lat": 35.166001570408376, "lng": 136.9082335611138, "label": "NAGOYA ReNY limited", "stageId": 0 },
            { "lat": 35.170851081557366, "lng": 136.9060843367847, "label": "Zephyr Hall", "stageId": 1 },
            { "lat": 35.16134523346223, "lng": 136.9067193299991, "label": "RAD HALL", "stageId": 2 },
            { "lat": 35.16134523346223, "lng": 136.9067193299991, "label": "大須TOYS", "stageId": 3 },
            { "lat": 35.16424369926063, "lng": 136.9037495464136, "label": "HOLIDAY NEXT NAGOYA", "stageId": 4 },
            { "lat": 35.16004212791668, "lng": 136.90194932430762, "label": "X-HALL", "stageId": 5 },
            { "lat": 35.16000082970525, "lng": 136.89932982095212, "label": "Dt.BLD 3F", "stageId": 6 },
            { "lat": 35.15966945798332, "lng": 136.89868119849234, "label": "UNLIMITS大須", "stageId": 7 },
            { "lat": 35.16702320253315, "lng": 136.89847946639605, "label": "バーサスホール", "stageId": 8 },
            { "lat": 35.16473965956889, "lng": 136.89552395342935, "label": "伏見ライオンシアター", "stageId": 9 },
            { "lat": 35.16477981919579, "lng": 136.89564044380157, "label": "伏見ライオンカフェ", "stageId": 10 },
            { "lat": 35.168976221616134, "lng": 136.9116683357419, "label": "ライオンリミテッド", "stageId": 11 },
            { "lat": 35.16379071205688, "lng": 136.91252729055782, "label": "シアターZONE", "stageId": 12 },
            { "lat": 35.16810400401865, "lng": 136.91129132349494, "label": "R.A.D", "stageId": 13 },
            { "lat": 35.16676454703111, "lng": 136.91336909873743, "label": "DIVA", "stageId": 14 },
            { "lat": 35.16671459533041, "lng": 136.91339195582066, "label": "DEEP@名古屋栄 \"DIVAの4階\"", "stageId": 15 },
            { "lat": 35.167336819497166, "lng": 136.91440851747558, "label": "RAD NINE", "stageId": 16 },
            
            { "lat": 35.169739098453576, "lng": 136.91618331150272, "label": "RAD SEVEN", "stageId": 17 },
            { "lat": 35.170035314591445, "lng": 136.91674883579316, "label": "新栄DAYTRIVE & TRIM", "stageId": 18 },
            { "lat": 35.16966190486848, "lng": 136.92093048507977, "label": "新栄シャングリラ", "stageId": 19 },

            { "lat": 35.16932468567744, "lng": 136.9176528699016, "label": "FJシアター", "stageType":"booth" },
            { "lat": 35.15992528447266, "lng": 136.9063359110922, "label": "静かの海", "stageType":"booth" },

            { "lat": 35.165407276651145, "lng": 136.90571805325442, "label": "リファレンス会議室", "stageType":"booth" },
            { "lat": 35.16294282492317, "lng": 136.90753618629324, "label": "アイドル共和国", "stageType":"booth" },
            { "lat": 35.16119904555698, "lng": 136.90161127079182, "label": "西大須AURA", "stageType":"booth" },
            { "lat": 35.16813380267406, "lng": 136.91241159361005, "label": "Party'z", "stageType":"booth" },
            { "lat": 35.16605245257526, "lng": 136.91648238173616, "label": "寿司処 五一", "stageType":"booth" },
            { "lat": 35.16671530867335, "lng": 136.91339998168678, "label": "焼肉HIDEYOSHI", "stageType":"booth" }

          ]
        }
      }
    },
    {
      "type": "message",
      "messages": [
        { "text": "※地図上の位置は会場位置関係の把握用です。最終的な入場口や集合場所は主催案内を確認してください。", "color": "#777777" }
      ]
    },
    {
      "type": "links",
      "items": [
        { "media": "website", "label": "公式サイト", "url": "http://mistfes.com/" },
        { "media": "x", "label": "公式Xアカウント", "url": "https://x.com/HMN_inc" }
      ]
    }
  ]
}
