{
  "title": "mistFES",
  "sections": [
    {
      "type": "banner",
      "imageUrl": "mistfes2024.jpg",
      "___imageUrl": "http://mistfes.com/images/mistfes2024.jpg",
      "aspectRatio": "16:9"
    },
    {
      "type": "ticket",
      "url": "https://www.funity.jp/tickets/andcore2/showlist",
      "prices": [
        { "name": "1日券 前売", "price": "¥7,100" },
        { "name": "1日券 当日", "price": "¥8,100" },
        { "name": "2日通し券", "price": "¥13,200" }
      ]
    },
    {
      "type": "message",
      "messages": [
        { "text": "名古屋・栄 / 大須 / 新栄エリアを横断するサーキットフェス。", "color": "#e91e63" },
        { "text": "移動前に各会場の入場導線・再入場可否・物販会場を確認してください。", "color": "#666666" }
      ]
    },
    {
      "type": "map_access",
      "venueName": "mistFES 会場エリア中心",
      "address": "愛知県名古屋市中区 栄・大須・新栄 周辺",
      "lat": 35.1679,
      "lng": 136.9092
    },
    {
      "type": "map_stages",
      "___note": "主要会場の位置関係が把握できるよう、名古屋・栄 / 大須 / 新栄エリアの会場をまとめています。",
      "center": { "lat": 35.1679, "lng": 136.9092 },
      "zoom": 15,
      "mapTitle": "venue",
      "pins": [
        { "lat": 35.16620339818639, "lng": 136.9082130398069, "label": "名古屋 ReNY" },
        { "lat": 35.17098777424267, "lng": 136.90618452495062, "label": "Zephyr ホール" },
        { "lat": 35.161538938573294, "lng": 136.90665662446438, "label": "RAD HALL" },
        { "lat": 35.16136134059747, "lng": 136.90700161651992, "label": "TOYS" },
        { "lat": 35.16439457743024, "lng": 136.9037357398068, "label": "HOLIDAY NEXT" },
        { "lat": 35.160193385133525, "lng": 136.9022491048765735, "label": "X-HALL" },
        { "lat": 35.160155514607595, "lng": 136.89925622719107, "label": "Dt.BLD 3F" },
        { "lat": 35.16011854194368, "lng": 136.9062932821353, "label": "静かの海" },
        { "lat": 35.1568668335241, "lng": 136.9064153016747, "label": "Zion" },
        { "lat": 35.16724473674373, "lng": 136.898458039806935, "label": "バーサスホール" },
        { "lat": 35.16500399686236, "lng": 136.89547025329978, "label": "ライオンシアター" },
        { "lat": 35.16495658883546, "lng": 136.8956824128207535, "label": "ライオンカフェ" },
        { "lat": 35.16909945771579, "lng": 136.912440773646335, "label": "ライオンリミテッド" },
        { "lat": 35.16390629463814, "lng": 136.9125813416562835, "label": "シアターZONE" },
        { "lat": 35.15729406064573, "lng": 136.90912962631376, "label": "LIVE HOUSE 51" },
        { "lat": 35.16700236610841, "lng": 136.9133967331668235, "label": "DIVA" },
        { "lat": 35.166862036807224, "lng": 136.9135362080304835, "label": "DEEP" },

        { "lat": 35.170193837041744, "lng": 136.91724242391905, "label": "DAYTRIVE", "stageType":"booth" },
        { "lat": 35.16616015692285, "lng": 136.90971128213545, "label": "CHUTOホール", "stageType":"booth" },
        { "lat": 35.16629967393694, "lng": 136.90750927049234, "label": "栄ガスビル", "stageType":"booth" },
        { "lat": 35.16393260735687, "lng": 136.91244186679262, "label": "シアターZONE駐車場", "stageType":"booth" },
        { "lat": 35.17145857480805, "lng": 136.90733676864275, "label": "TKPガーデンシティ栄", "stageType":"booth" },
        { "lat": 35.16912576875426, "lng": 136.91207599323369, "label": "Live HOUSE 51", "stageType":"booth" },
        { "lat": 35.169482338423194, "lng": 136.91829812761833, "label": "Fj theater", "stageType":"booth" },
        { "lat": 35.167164384072414, "lng": 136.89869081097112, "label": "studiofix名古屋", "stageType":"booth" },
        { "lat": 35.168225797851996, "lng": 136.89784299878264, "label": "伏見駅前会議室", "stageType":"booth" },
        { "lat": 35.161449898082694, "lng": 136.90737974296073, "label": "矢場町中駒ビル", "stageType":"booth" },
        { "lat": 35.160144855887815, "lng": 136.90633619747794, "label": "静かの海", "stageType":"booth" }
      ],
      "pins_old": [
        { "lat": 35.169565967946966, "lng": 136.906291826314, "label": "サンシャイン栄", "accuracy": "verified" },
        { "lat": 35.1651695220834, "lng": 136.90907261282075, "label": "エディオン広場", "accuracy": "verified" },
        { "lat": 35.161538938573294, "lng": 136.90665662446438, "label": "RAD HALL", "accuracy": "verified" },
        { "lat": 35.160193385133525, "lng": 136.9022491048765735,    "label": "X-HALL", "accuracy": "verified" },
        { "lat": 35.16025199898386, "lng": 136.90238904720542, "label": "Y-CITY HALL", "accuracy": "estimated" },
        { "lat": 35.160155514607595, "lng": 136.89925622719107, "label": "Dt3F", "accuracy": "estimated" },
        { "lat": 35.162043779636, "lng": 136.89910828398504, "label": "BSJ theater", "accuracy": "estimated" },
        { "lat": 35.1568668335241, "lng": 136.9064153016747, "label": "Zion", "accuracy": "estimated" },
        { "lat": 35.157311603885205, "lng": 136.909483677890835, "label": "OYS", "accuracy": "estimated" },
        { "lat": 35.16724473674373, "lng": 136.898458039806935, "label": "バーサスホール", "accuracy": "estimated" },
        { "lat": 35.16500399686236, "lng": 136.89547025329978, "label": "ライオンシアター", "accuracy": "estimated" },
        { "lat": 35.16495658883546, "lng": 136.8956824128207535, "label": "ライオンカフェ", "accuracy": "estimated" },
        { "lat": 35.16909945771579, "lng": 136.912440773646335, "label": "ライオンリミテッド", "accuracy": "estimated" },
        { "lat": 35.16390629463814, "lng": 136.9125813416562835, "label": "シアターZONE", "accuracy": "estimated" },
        { "lat": 35.16825654848419, "lng": 136.9113475255547335, "label": "RAD", "accuracy": "verified" },
        { "lat": 35.16700236610841, "lng": 136.9133967331668235, "label": "DIVA", "accuracy": "estimated" },
        { "lat": 35.166862036807224, "lng": 136.9135362080304835, "label": "DEEP", "accuracy": "estimated" },
        { "lat": 35.16981003495451, "lng": 136.9161833974781635, "label": "RAD SEVEN", "accuracy": "verified" },
        { "lat": 35.17023768817763, "lng": 136.9167596263140235, "label": "DAYTRIVE", "accuracy": "verified"  }
      ]
    },
    {
      "type": "message",
      "messages": [
        { "text": "サンシャイン栄〜エディオン広場〜栄会場と、大須・新栄会場は移動時間に余裕を持つのがおすすめです。", "color": "#1565c0" },
        { "text": "※地図上の位置は会場位置関係の把握用です。最終的な入場口や集合場所は主催案内を確認してください。", "color": "#777777" }
      ]
    },
    {
      "type": "links",
      "items": [
        { "media": "website", "label": "公式サイト", "url": "http://mistfes.com/2024/" },
        { "media": "x", "label": "公式Xアカウント", "url": "https://x.com/HMN_inc" }
      ]
    }
  ]
}
